{"type": "FeatureCollection", "features": [{"type": "Feature", "geometry": {"type": "Point", "coordinates": [-122.1953092962257, 47.310673446998756]}, "properties": {"site": "Rita's House", "address": "32505 110th Ave SE", "city": "Auburn", "zip": 98092, "region": "South", "category": "Homeless Shelter and Housing Programs", "services": ["CareCoordCaseManagement", "HealthCareAccessInsuranceEnroll", "MobileMedicalOrStreetMedicine", "ShelterNursing"]}}, {"type": "Feature", "geometry": {"type": "Point", "coordinates": [-122.23141351199459, 47.323710959503295]}, "properties": {"site": "Don's Place", "address": "9 16th St NW", "city": "Auburn", "zip": 98001, "region": "South", "category": "Homeless Shelter and Housing Programs", "services": ["CareCoordCaseManagement", "HealthCareAccessInsuranceEnroll", "ShelterNursing"]}}, {"type": "Feature", "geometry": {"type": "Point", "coordinates": [-122.31064045853009, 47.593937959756495]}, "properties": {"site": "Jan and Peter's Place", "address": "901 Rainier Ave S", "city": "Seattle", "zip": 98144, "region": "Seattle", "category": "Homeless Shelter and Housing Programs", "services": ["BehavioralHealthSupports", "CareCoordCaseManagement", "HealthCareAccessInsuranceEnroll", "ShelterNursing"]}}, {"type": "Feature", "geometry": {"type": "Point", "coordinates": [-122.32784837019095, 47.61360332587004]}, "properties": {"site": "Wintonia Supportive Housing", "address": "1431 Minor Ave", "city": "Seattle", "zip": 98101, "region": "Seattle", "category": "Homeless Shelter and Housing Programs", "services": ["CareCoordCaseManagement", "HealthCareAccessInsuranceEnroll", "HousingHealthOutreachTeam"]}}, {"type": "Feature", "geometry": {"type": "Point", "coordinates": [-122.23644846185236, 47.37892444793649]}, "properties": {"site": "Katherine's Transitional House", "address": "327 3rd Ave S", "city": "Kent", "zip": 98032, "region": "South", "category": "Homeless Shelter and Housing Programs", "services": ["CareCoordCaseManagement", "HealthCareAccessInsuranceEnroll", "ShelterNursing"]}}, {"type": "Feature", "geometry": {"type": "Point", "coordinates": [-122.2179948613894, 47.36647968903079]}, "properties": {"site": "Green River", "address": "Green River Rd and 94th Pl S", "city": "Kent", "zip": 98030, "region": "South", "category": "Encampment and Outreach Area", "services": ["BehavioralHealthSupports", "CareCoordCaseManagement", "HealthCareAccessInsuranceEnroll"]}}, {"type": "Feature", "geometry": {"type": "Point", "coordinates": [-122.30575488042201, 47.36667925520069]}, "properties": {"site": "Anchor Shelter", "address": "26225 Pacific Hwy S", "city": "Des Moines", "zip": 98198, "region": "South", "category": "Homeless Shelter and Housing Programs", "services": ["CareCoordCaseManagement", "HealthCareAccessInsuranceEnroll", "ShelterNursing"]}}, {"type": "Feature", "geometry": {"type": "Point", "coordinates": [-122.33260565429342, 47.60786425596641]}, "properties": {"site": "YWCA Downtown", "address": "1118 5th Ave", "city": "Seattle", "zip": 98101, "region": "Seattle", "category": "Homeless Shelter and Housing Programs", "services": ["CareCoordCaseManagement", "HealthCareAccessInsuranceEnroll"]}}, {"type": "Feature", "geometry": {"type": "Point", "coordinates": [-122.34544391577262, 47.4705728794884]}, "properties": {"site": "REACH Office - Burien", "address": "820 SW 148th St", "city": "Burien", "zip": 98166, "region": "South", "category": "Community Based Organizations", "services": ["BehavioralHealthSupports", "CareCoordCaseManagement", "HealthCareAccessInsuranceEnroll"]}}, {"type": "Feature", "geometry": {"type": "Point", "coordinates": [-122.34340457107253, 47.69412808448607]}, "properties": {"site": "Aurora Emphasis Area", "address": "Street Outreach Area", "city": "Seattle", "zip": null, "region": "Seattle", "category": "Encampment and Outreach Area", "services": ["BehavioralHealthSupports", "CareCoordCaseManagement", "HealthCareAccessInsuranceEnroll", "MobileMedicalOrStreetMedicine"]}}, {"type": "Feature", "geometry": {"type": "Point", "coordinates": [-122.3854855923743, 47.6705486941898]}, "properties": {"site": "Ballard Emphasis Area", "address": "Street Outreach Area", "city": "Seattle", "zip": null, "region": "Seattle", "category": "Encampment and Outreach Area", "services": ["BehavioralHealthSupports", "CareCoordCaseManagement", "HealthCareAccessInsuranceEnroll", "MobileMedicalOrStreetMedicine"]}}, {"type": "Feature", "geometry": {"type": "Point", "coordinates": [-122.321061494224, 47.59836362561973]}, "properties": {"site": "Chinatown- International District", "address": "Street Outreach Area", "city": "Seattle", "zip": null, "region": "Seattle", "category": "Encampment and Outreach Area", "services": ["BehavioralHealthSupports", "CareCoordCaseManagement", "HealthCareAccessInsuranceEnroll", "MobileMedicalOrStreetMedicine"]}}, {"type": "Feature", "geometry": {"type": "Point", "coordinates": [-122.33301293062294, 47.607027769693325]}, "properties": {"site": "Downtown Seattle", "address": "Street Outreach Area", "city": "Seattle", "zip": null, "region": "Seattle", "category": "Encampment and Outreach Area", "services": ["BehavioralHealthSupports", "CareCoordCaseManagement", "HealthCareAccessInsuranceEnroll", "MobileMedicalOrStreetMedicine"]}}, {"type": "Feature", "geometry": {"type": "Point", "coordinates": [-122.34749667813567, 47.65129055312801]}, "properties": {"site": "Fremont Trail & Ballard Locks", "address": "Street Outreach Area", "city": "Seattle", "zip": null, "region": "Seattle", "category": "Encampment and Outreach Area", "services": ["BehavioralHealthSupports", "CareCoordCaseManagement", "HealthCareAccessInsuranceEnroll", "MobileMedicalOrStreetMedicine"]}}, {"type": "Feature", "geometry": {"type": "Point", "coordinates": [-122.32727296105372, 47.545922580384016]}, "properties": {"site": "Georgetown Emphasis Area", "address": "Street Outreach Area", "city": "Seattle", "zip": null, "region": "Seattle", "category": "Encampment and Outreach Area", "services": ["BehavioralHealthSupports", "CareCoordCaseManagement", "HealthCareAccessInsuranceEnroll", "MobileMedicalOrStreetMedicine"]}}, {"type": "Feature", "geometry": {"type": "Point", "coordinates": [-122.29542020718748, 47.35813026773718]}, "properties": {"site": "Kent Emphasis Area", "address": "Street Outreach Area", "city": "Kent", "zip": null, "region": "South", "category": "Encampment and Outreach Area", "services": ["BehavioralHealthSupports", "CareCoordCaseManagement", "HealthCareAccessInsuranceEnroll", "MobileMedicalOrStreetMedicine"]}}, {"type": "Feature", "geometry": {"type": "Point", "coordinates": [-122.32200731544931, 47.65654098428188]}, "properties": {"site": "NE Seattle Emphasis  Area", "address": "Street Outreach Area", "city": "Seattle", "zip": null, "region": "Seattle", "category": "Encampment and Outreach Area", "services": ["BehavioralHealthSupports", "CareCoordCaseManagement", "HealthCareAccessInsuranceEnroll", "MobileMedicalOrStreetMedicine"]}}, {"type": "Feature", "geometry": {"type": "Point", "coordinates": [-122.36818787834206, 47.711167648643034]}, "properties": {"site": "NW Seattle Emphasis Area", "address": "Street Outreach Area", "city": "Seattle", "zip": null, "region": "Seattle", "category": "Encampment and Outreach Area", "services": ["BehavioralHealthSupports", "CareCoordCaseManagement", "HealthCareAccessInsuranceEnroll", "MobileMedicalOrStreetMedicine"]}}, {"type": "Feature", "geometry": {"type": "Point", "coordinates": [-122.29622033028097, 47.60518195043639]}, "properties": {"site": "Rainier Emphasis  Area", "address": "Street Outreach Area", "city": "Seattle", "zip": null, "region": "Seattle", "category": "Encampment and Outreach Area", "services": ["BehavioralHealthSupports", "CareCoordCaseManagement", "HealthCareAccessInsuranceEnroll", "MobileMedicalOrStreetMedicine"]}}, {"type": "Feature", "geometry": {"type": "Point", "coordinates": [-122.34383640763187, 47.61028335694457]}, "properties": {"site": "Seattle Waterfront", "address": "Street Outreach Area", "city": "Seattle", "zip": null, "region": "Seattle", "category": "Encampment and Outreach Area", "services": ["BehavioralHealthSupports", "CareCoordCaseManagement", "HealthCareAccessInsuranceEnroll", "MobileMedicalOrStreetMedicine"]}}, {"type": "Feature", "geometry": {"type": "Point", "coordinates": [-122.32999455938682, 47.58648700355794]}, "properties": {"site": "SODO Emphasis Area", "address": "Street Outreach Area", "city": "Seattle", "zip": null, "region": "Seattle", "category": "Encampment and Outreach Area", "services": ["BehavioralHealthSupports", "CareCoordCaseManagement", "HealthCareAccessInsuranceEnroll", "MobileMedicalOrStreetMedicine"]}}, {"type": "Feature", "geometry": {"type": "Point", "coordinates": [-122.33504466049726, 47.52693817662037]}, "properties": {"site": "South Park Emphasis  Area", "address": "Street Outreach Area", "city": "Seattle", "zip": null, "region": "Seattle", "category": "Encampment and Outreach Area", "services": ["BehavioralHealthSupports", "CareCoordCaseManagement", "HealthCareAccessInsuranceEnroll", "MobileMedicalOrStreetMedicine"]}}, {"type": "Feature", "geometry": {"type": "Point", "coordinates": [-122.29543430634924, 47.53089184557188]}, "properties": {"site": "South Seattle Emphasis Area", "address": "Street Outreach Area", "city": "Seattle", "zip": null, "region": "Seattle", "category": "Encampment and Outreach Area", "services": ["BehavioralHealthSupports", "CareCoordCaseManagement", "HealthCareAccessInsuranceEnroll", "MobileMedicalOrStreetMedicine"]}}, {"type": "Feature", "geometry": {"type": "Point", "coordinates": [-122.34181576287948, 47.469551786294694]}, "properties": {"site": "SW Seattle Emphasis Area", "address": "Street Outreach Area", "city": "Seattle", "zip": null, "region": "Seattle", "category": "Encampment and Outreach Area", "services": ["BehavioralHealthSupports", "CareCoordCaseManagement", "HealthCareAccessInsuranceEnroll", "MobileMedicalOrStreetMedicine"]}}, {"type": "Feature", "geometry": {"type": "Point", "coordinates": [-122.33130550349793, 47.55849768398128]}, "properties": {"site": "West Seattle Emphasis Area", "address": "Street Outreach Area", "city": "Seattle", "zip": null, "region": "Seattle", "category": "Encampment and Outreach Area", "services": ["BehavioralHealthSupports", "CareCoordCaseManagement", "HealthCareAccessInsuranceEnroll", "MobileMedicalOrStreetMedicine"]}}, {"type": "Feature", "geometry": {"type": "Point", "coordinates": [-122.3292363504314, 47.60248270218038]}, "properties": {"site": "Jefferson Day Center", "address": "420 4th Ave", "city": "Seattle", "zip": 98104, "region": "Seattle", "category": "Homeless Shelter and Housing Programs", "services": ["BehavioralHealthSupports", "CareCoordCaseManagement", "HealthCareAccessInsuranceEnroll", "MobileMedicalOrStreetMedicine", "PrimaryAndPreventativeCare"]}}, {"type": "Feature", "geometry": {"type": "Point", "coordinates": [-122.36522592330331, 47.623920765745126]}, "properties": {"site": "Bridge Shelter", "address": "551 Elliott Ave W", "city": "Seattle", "zip": 98119, "region": "Seattle", "category": "Homeless Shelter and Housing Programs", "services": ["BehavioralHealthSupports", "CareCoordCaseManagement", "HealthCareAccessInsuranceEnroll", "MobileMedicalOrStreetMedicine", "PrimaryAndPreventativeCare"]}}, {"type": "Feature", "geometry": {"type": "Point", "coordinates": [-122.1815269377918, 47.67624967261582]}, "properties": {"site": "New Bethlehem Center", "address": "8045 NE 120th St", "city": "Kirkland", "zip": 98033, "region": "East", "category": "Homeless Shelter and Housing Programs", "services": ["CareCoordCaseManagement", "HealthCareAccessInsuranceEnroll", "ShelterNursing"]}}, {"type": "Feature", "geometry": {"type": "Point", "coordinates": [-122.33865581170141, 47.58859417556931]}, "properties": {"site": "St. Martin de Porres Shelter", "address": "1561 Alaskan Way S", "city": "Seattle", "zip": 98134, "region": "Seattle", "category": "Homeless Shelter and Housing Programs", "services": ["BehavioralHealthSupports", "CareCoordCaseManagement", "HealthCareAccessInsuranceEnroll", "ShelterNursing"]}}, {"type": "Feature", "geometry": {"type": "Point", "coordinates": [-122.33761165415609, 47.61545362994922]}, "properties": {"site": "St. Martin's on Westlake", "address": "2008 Westlake Ave", "city": "Seattle", "zip": 98121, "region": "Seattle", "category": "Homeless Shelter and Housing Programs", "services": ["CareCoordCaseManagement", "HealthCareAccessInsuranceEnroll", "HousingHealthOutreachTeam"]}}, {"type": "Feature", "geometry": {"type": "Point", "coordinates": [-122.34418089176823, 47.63650984806709]}, "properties": {"site": "The Inn", "address": "1911 Aurora Ave N", "city": "Seattle", "zip": 98109, "region": "Seattle", "category": "Homeless Shelter and Housing Programs", "services": ["BehavioralHealthSupports", "CareCoordCaseManagement", "HealthCareAccessInsuranceEnroll"]}}, {"type": "Feature", "geometry": {"type": "Point", "coordinates": [-122.3353768471189, 47.60050365569275]}, "properties": {"site": "Compass Center", "address": "210 Alaskan Way", "city": "Seattle", "zip": 98104, "region": "Seattle", "category": "Homeless Shelter and Housing Programs", "services": ["CareCoordCaseManagement", "HealthCareAccessInsuranceEnroll", "HousingHealthOutreachTeam"]}}, {"type": "Feature", "geometry": {"type": "Point", "coordinates": [-122.30446290666463, 47.58600333055582]}, "properties": {"site": "Hobson Place", "address": "1911 22nd Ave S", "city": "Seattle", "zip": 98144, "region": "Seattle", "category": "Homeless Shelter and Housing Programs", "services": ["CareCoordCaseManagement", "HealthCareAccessInsuranceEnroll", "PrimaryAndPreventativeCare"]}}, {"type": "Feature", "geometry": {"type": "Point", "coordinates": [-122.32949205003867, 47.61823775058443]}, "properties": {"site": "1811 Eastlake Supportive Housing", "address": "1811 Eastlake Ave", "city": "Seattle", "zip": 98101, "region": "Seattle", "category": "Homeless Shelter and Housing Programs", "services": ["CareCoordCaseManagement", "HealthCareAccessInsuranceEnroll", "HousingHealthOutreachTeam"]}}, {"type": "Feature", "geometry": {"type": "Point", "coordinates": [-122.34504108361104, 47.70547417007086]}, "properties": {"site": "Aurora House", "address": "10507 Aurora Ave N", "city": "Seattle", "zip": 98133, "region": "Seattle", "category": "Homeless Shelter and Housing Programs", "services": ["CareCoordCaseManagement", "HealthCareAccessInsuranceEnroll", "HousingHealthOutreachTeam"]}}, {"type": "Feature", "geometry": {"type": "Point", "coordinates": [-122.33276706716738, 47.622766860169456]}, "properties": {"site": "Canaday Supportive Housing", "address": "424 Minor Ave N", "city": "Seattle", "zip": 98109, "region": "Seattle", "category": "Homeless Shelter and Housing Programs", "services": ["CareCoordCaseManagement", "HealthCareAccessInsuranceEnroll", "HousingHealthOutreachTeam"]}}, {"type": "Feature", "geometry": {"type": "Point", "coordinates": [-122.34572528270189, 47.698467034519176]}, "properties": {"site": "Clement Place Supportive Housing", "address": "937 N 96th St", "city": "Seattle", "zip": 98103, "region": "Seattle", "category": "Homeless Shelter and Housing Programs", "services": ["BehavioralHealthSupports", "CareCoordCaseManagement", "HealthCareAccessInsuranceEnroll"]}}, {"type": "Feature", "geometry": {"type": "Point", "coordinates": [-122.33278567231508, 47.62343556413127]}, "properties": {"site": "Kerner-Scott House", "address": "510 Minor Ave N", "city": "Seattle", "zip": 98109, "region": "Seattle", "category": "Homeless Shelter and Housing Programs", "services": ["CareCoordCaseManagement", "HealthCareAccessInsuranceEnroll", "HousingHealthOutreachTeam"]}}, {"type": "Feature", "geometry": {"type": "Point", "coordinates": [-122.3318832643026, 47.6029047496284]}, "properties": {"site": "Lyon Building Supportive Housing", "address": "607 3rd Ave", "city": "Seattle", "zip": 98104, "region": "Seattle", "category": "Homeless Shelter and Housing Programs", "services": ["CareCoordCaseManagement", "HealthCareAccessInsuranceEnroll", "HousingHealthOutreachTeam"]}}, {"type": "Feature", "geometry": {"type": "Point", "coordinates": [-122.34542820204622, 47.73132253047741]}, "properties": {"site": "Mary Pilgrim Inn", "address": "14115 Aurora Ave N", "city": "Seattle", "zip": 98113, "region": "Seattle", "category": "Homeless Shelter and Housing Programs", "services": ["BehavioralHealthSupports", "CareCoordCaseManagement", "HealthCareAccessInsuranceEnroll", "ShelterNursing"]}}, {"type": "Feature", "geometry": {"type": "Point", "coordinates": [-122.33122332944218, 47.602272771971606]}, "properties": {"site": "Morrison Supportive Housing", "address": "509 3rd Ave", "city": "Seattle", "zip": 98104, "region": "Seattle", "category": "Homeless Shelter and Housing Programs", "services": ["CareCoordCaseManagement", "HealthCareAccessInsuranceEnroll", "HousingHealthOutreachTeam"]}}, {"type": "Feature", "geometry": {"type": "Point", "coordinates": [-122.33004543045836, 47.600581382444915]}, "properties": {"site": "Union Hotel", "address": "204 3rd Ave S", "city": "Seattle", "zip": 98104, "region": "Seattle", "category": "Homeless Shelter and Housing Programs", "services": ["CareCoordCaseManagement", "HealthCareAccessInsuranceEnroll", "HousingHealthOutreachTeam"]}}, {"type": "Feature", "geometry": {"type": "Point", "coordinates": [-122.30347922511878, 47.585949397593645]}, "properties": {"site": "Wellspring Early Learning Center", "address": "1900 Rainier Ave S", "city": "Seattle", "zip": 98144, "region": "Seattle", "category": "Community Based Organizations", "services": ["BehavioralHealthSupports", "CareCoordCaseManagement", "EarlyChildhoodDevelopment", "HealthCareAccessInsuranceEnroll"]}}, {"type": "Feature", "geometry": {"type": "Point", "coordinates": [-122.33397272679524, 47.61552205278174]}, "properties": {"site": "Mary's Place Day Center Downtown", "address": "1830 9th Ave", "city": "Seattle", "zip": 98104, "region": "Seattle", "category": "Homeless Shelter and Housing Programs", "services": ["CareCoordCaseManagement", "FirstStepsMaternitySupport", "HealthCareAccessInsuranceEnroll"]}}, {"type": "Feature", "geometry": {"type": "Point", "coordinates": [-122.34242549544253, 47.72291260176948]}, "properties": {"site": "Mary's Place North Seattle", "address": "1155 N 130th St", "city": "Seattle", "zip": 98133, "region": "Seattle", "category": "Homeless Shelter and Housing Programs", "services": ["CareCoordCaseManagement", "FirstStepsMaternitySupport", "HealthCareAccessInsuranceEnroll"]}}, {"type": "Feature", "geometry": {"type": "Point", "coordinates": [-122.35015194696274, 47.615948098624926]}, "properties": {"site": "Humphrey House", "address": "111 Cedar St", "city": "Seattle", "zip": 98121, "region": "Seattle", "category": "Homeless Shelter and Housing Programs", "services": ["CareCoordCaseManagement", "HealthCareAccessInsuranceEnroll", "HousingHealthOutreachTeam"]}}, {"type": "Feature", "geometry": {"type": "Point", "coordinates": [-122.31356554218219, 47.59815995233408]}, "properties": {"site": "Almquist Place", "address": "501 Rainier Ave S", "city": "Seattle", "zip": 98144, "region": "Seattle", "category": "Homeless Shelter and Housing Programs", "services": ["BehavioralHealthSupports", "CareCoordCaseManagement", "HealthCareAccessInsuranceEnroll"]}}, {"type": "Feature", "geometry": {"type": "Point", "coordinates": [-122.34590155385845, 47.612668379429685]}, "properties": {"site": "Lewiston & Scargo Supportive Housing", "address": "2209 1st Ave", "city": "Seattle", "zip": 98121, "region": "Seattle", "category": "Homeless Shelter and Housing Programs", "services": ["CareCoordCaseManagement", "HealthCareAccessInsuranceEnroll", "HousingHealthOutreachTeam"]}}, {"type": "Feature", "geometry": {"type": "Point", "coordinates": [-122.33207114937689, 47.6202984148063]}, "properties": {"site": "Pat Williams Apartments", "address": "219 Pontius Ave N", "city": "Seattle", "zip": 98109, "region": "Seattle", "category": "Homeless Shelter and Housing Programs", "services": ["BehavioralHealthSupports", "CareCoordCaseManagement", "HealthCareAccessInsuranceEnroll"]}}, {"type": "Feature", "geometry": {"type": "Point", "coordinates": [-122.34315456600966, 47.613375303688365]}, "properties": {"site": "Simons Supportive Housing", "address": "2119 3rd\u00a0Ave", "city": "Seattle", "zip": 98121, "region": "Seattle", "category": "Homeless Shelter and Housing Programs", "services": ["CareCoordCaseManagement", "HealthCareAccessInsuranceEnroll", "HousingHealthOutreachTeam"]}}, {"type": "Feature", "geometry": {"type": "Point", "coordinates": [-122.34953244671321, 47.61716962517789]}, "properties": {"site": "New Horizons", "address": "2709 3rd Ave S", "city": "Seattle", "zip": 98121, "region": "Seattle", "category": "Homeless Shelter and Housing Programs", "services": ["BehavioralHealthSupports", "CareCoordCaseManagement", "HealthCareAccessInsuranceEnroll", "PrimaryAndPreventativeCare"]}}, {"type": "Feature", "geometry": {"type": "Point", "coordinates": [-122.31088477551486, 47.60132796586635]}, "properties": {"site": "Africatown Community Home at Keiro", "address": "1601 E Yesler Way", "city": "Seattle", "zip": 98122, "region": "Seattle", "category": "Homeless Shelter and Housing Programs", "services": ["BehavioralHealthSupports", "CareCoordCaseManagement", "HealthCareAccessInsuranceEnroll", "MobileMedicalOrStreetMedicine", "PrimaryAndPreventativeCare"]}}, {"type": "Feature", "geometry": {"type": "Point", "coordinates": [-122.33126316537604, 47.601258389682016]}, "properties": {"site": "Chief Seattle Club", "address": "410 2nd Ave Ext S", "city": "Seattle", "zip": 98104, "region": "Seattle", "category": "Homeless Shelter and Housing Programs", "services": ["BehavioralHealthSupports", "CareCoordCaseManagement", "HealthCareAccessInsuranceEnroll"]}}, {"type": "Feature", "geometry": {"type": "Point", "coordinates": [-122.35337337817747, 47.46803554494422]}, "properties": {"site": "Hospitality House", "address": "1419 SW 150th St", "city": "Burien", "zip": 98166, "region": "South", "category": "Homeless Shelter and Housing Programs", "services": ["CareCoordCaseManagement", "HealthCareAccessInsuranceEnroll", "ShelterNursing"]}}, {"type": "Feature", "geometry": {"type": "Point", "coordinates": [-122.28884921461864, 47.565234095739505]}, "properties": {"site": "REST Shelter", "address": "4215 Rainier Ave S", "city": "Seattle", "zip": 98118, "region": "Seattle", "category": "Homeless Shelter and Housing Programs", "services": ["CareCoordCaseManagement", "HealthCareAccessInsuranceEnroll"]}}, {"type": "Feature", "geometry": {"type": "Point", "coordinates": [-122.34162680164852, 47.61319618065735]}, "properties": {"site": "Angeline's Day Center", "address": "2030 3rd Ave", "city": "Seattle", "zip": 98121, "region": "Seattle", "category": "Homeless Shelter and Housing Programs", "services": ["BehavioralHealthSupports", "CareCoordCaseManagement", "HealthCareAccessInsuranceEnroll", "ShelterNursing"]}}, {"type": "Feature", "geometry": {"type": "Point", "coordinates": [-122.29527103212999, 47.60823088588729]}, "properties": {"site": "East Cherry Shelter", "address": "2820 E Cherry St", "city": "Seattle", "zip": 98122, "region": "Seattle", "category": "Community Based Organizations", "services": ["CareCoordCaseManagement", "HealthCareAccessInsuranceEnroll", "ShelterNursing"]}}, {"type": "Feature", "geometry": {"type": "Point", "coordinates": [-122.28361555932435, 47.53910822350568]}, "properties": {"site": "The Willow", "address": "3800 S Myrtle St", "city": "Seattle", "zip": 98118, "region": "Seattle", "category": "Homeless Shelter and Housing Programs", "services": ["CareCoordCaseManagement", "HealthCareAccessInsuranceEnroll", "ShelterNursing"]}}, {"type": "Feature", "geometry": {"type": "Point", "coordinates": [-122.33260565429342, 47.60786425596641]}, "properties": {"site": "YWCA Seneca", "address": "1118 5th Ave", "city": "Seattle", "zip": 98101, "region": "Seattle", "category": "Community Based Organizations", "services": ["CareCoordCaseManagement", "HealthCareAccessInsuranceEnroll"]}}, {"type": "Feature", "geometry": {"type": "Point", "coordinates": [-122.23332397249237, 47.4695140978222]}, "properties": {"site": "Sidney Wilson House", "address": "1150 Oakesdale Ave", "city": "Renton", "zip": 98166, "region": "South", "category": "Homeless Shelter and Housing Programs", "services": ["CareCoordCaseManagement", "HealthCareAccessInsuranceEnroll", "HousingHealthOutreachTeam", "MobileMedicalOrStreetMedicine", "PrimaryAndPreventativeCare"]}}, {"type": "Feature", "geometry": {"type": "Point", "coordinates": [-122.2915334826201, 47.38684341273768]}, "properties": {"site": "Thea Bowman Apartments", "address": "23920 32nd Ave S", "city": "Kent", "zip": 98032, "region": "South", "category": "Homeless Shelter and Housing Programs", "services": ["CareCoordCaseManagement", "HealthCareAccessInsuranceEnroll", "HousingHealthOutreachTeam", "MobileMedicalOrStreetMedicine", "PrimaryAndPreventativeCare"]}}, {"type": "Feature", "geometry": {"type": "Point", "coordinates": [-122.34530766551383, 47.719315447572754]}, "properties": {"site": "North Aurora", "address": "12255 Aurora Ave N", "city": "Seattle", "zip": 98133, "region": "Seattle", "category": "Encampment and Outreach Area", "services": ["BehavioralHealthSupports", "CareCoordCaseManagement", "HealthCareAccessInsuranceEnroll", "MobileMedicalOrStreetMedicine", "PrimaryAndPreventativeCare"]}}, {"type": "Feature", "geometry": {"type": "Point", "coordinates": [-122.32853970351404, 47.60248898563451]}, "properties": {"site": "Seattle Mobile Medical Van", "address": "401 5th Ave", "city": "Seattle", "zip": 98104, "region": "Seattle", "category": "King County Public Health Center (mobile)", "services": ["CareCoordCaseManagement", "Dental", "HealthCareAccessInsuranceEnroll", "MobileMedicalOrStreetMedicine", "PrimaryAndPreventativeCare"]}}, {"type": "Feature", "geometry": {"type": "Point", "coordinates": [-122.17863022220457, 47.48651559776044]}, "properties": {"site": "South King County Mobile Medical Van", "address": "3005 NE 4th St", "city": "Renton", "zip": 98056, "region": "South", "category": "King County Public Health Center (mobile)", "services": ["CareCoordCaseManagement", "Dental", "HealthCareAccessInsuranceEnroll", "MobileMedicalOrStreetMedicine", "PrimaryAndPreventativeCare"]}}, {"type": "Feature", "geometry": {"type": "Point", "coordinates": [-122.32853970351404, 47.60248898563451]}, "properties": {"site": "Street Medicine Team", "address": "401 5th Ave", "city": "Seattle", "zip": 98104, "region": "Seattle", "category": "King County Public Health Center (mobile)", "services": ["BehavioralHealthSupports", "CareCoordCaseManagement", "HealthCareAccessInsuranceEnroll", "MobileMedicalOrStreetMedicine", "PrimaryAndPreventativeCare"]}}, {"type": "Feature", "geometry": {"type": "Point", "coordinates": [-122.22748034708013, 47.30891756295732]}, "properties": {"site": "Auburn at HealthPoint", "address": "126 Auburn Ave", "city": "Auburn", "zip": 98002, "region": "South", "category": "Women, Infants, and Children (WIC) Site", "services": ["CareCoordCaseManagement", "FirstStepsMaternitySupport", "HealthCareAccessInsuranceEnroll", "SexualAndReproductiveHealth", "WomenInfantsAndChildrenWIC"]}}, {"type": "Feature", "geometry": {"type": "Point", "coordinates": [-122.22328094597589, 47.31618504036462]}, "properties": {"site": "Auburn Public Health Center", "address": "901 Auburn Way N", "city": "Auburn", "zip": 98002, "region": "South", "category": "King County Public Health Center", "services": ["CareCoordCaseManagement", "FirstStepsMaternitySupport", "HealthCareAccessInsuranceEnroll", "WomenInfantsAndChildrenWIC"]}}, {"type": "Feature", "geometry": {"type": "Point", "coordinates": [-122.20058754021669, 47.76093942133552]}, "properties": {"site": "Bothell at HealthPoint ", "address": "10414 Beardslee Blvd", "city": "Bothell", "zip": 98011, "region": "North", "category": "Women, Infants, and Children (WIC) Site", "services": ["CareCoordCaseManagement", "FirstStepsMaternitySupport", "HealthCareAccessInsuranceEnroll", "WomenInfantsAndChildrenWIC"]}}, {"type": "Feature", "geometry": {"type": "Point", "coordinates": [-121.91267301964594, 47.648869742786175]}, "properties": {"site": "Carnation at Hopelink", "address": "39157 E Commercial", "city": "Carnation", "zip": 98014, "region": "East", "category": "Women, Infants, and Children (WIC) Site", "services": ["CareCoordCaseManagement", "FirstStepsMaternitySupport", "HealthCareAccessInsuranceEnroll", "NurseFamilyPartnership", "WomenInfantsAndChildrenWIC"]}}, {"type": "Feature", "geometry": {"type": "Point", "coordinates": [-122.28574765004325, 47.56390363416177]}, "properties": {"site": "Columbia City Center for Health", "address": "4400 37th Ave S", "city": "Seattle", "zip": 98118, "region": "Seattle", "category": "King County Public Health Center", "services": ["CareCoordCaseManagement", "ChildrenSpecialHealthCareNeeds", "Dental", "FirstStepsMaternitySupport", "HealthCareAccessInsuranceEnroll", "WomenInfantsAndChildrenWIC"]}}, {"type": "Feature", "geometry": {"type": "Point", "coordinates": [-122.30624604418122, 47.365126183505616]}, "properties": {"site": "Des Moines at HealthPoint Midway", "address": "26401 Pacific Hwy S", "city": "Des Moines", "zip": 98198, "region": "South", "category": "Women, Infants, and Children (WIC) Site", "services": ["CareCoordCaseManagement", "FirstStepsMaternitySupport", "HealthCareAccessInsuranceEnroll", "NurseFamilyPartnership", "WomenInfantsAndChildrenWIC"]}}, {"type": "Feature", "geometry": {"type": "Point", "coordinates": [-122.3421668830947, 47.61459717115053]}, "properties": {"site": "Downtown Public Health Center", "address": "2124 4th Ave", "city": "Seattle", "zip": 98121, "region": "Seattle", "category": "King County Public Health Center", "services": ["CareCoordCaseManagement", "Dental", "FirstStepsMaternitySupport", "HealthCareAccessInsuranceEnroll", "KidsPlus", "PathwaysForOpioidUseDisorder", "PrimaryAndPreventativeCare", "RefugeeScreening", "SexualAndReproductiveHealth", "WomenInfantsAndChildrenWIC"]}}, {"type": "Feature", "geometry": {"type": "Point", "coordinates": [-122.14988255448546, 47.581157130894084]}, "properties": {"site": "Eastgate Public Health Center", "address": "14350 SE Eastgate Way", "city": "Bellevue", "zip": 98007, "region": "East", "category": "King County Public Health Center", "services": ["CareCoordCaseManagement", "Dental", "FirstStepsMaternitySupport", "HealthCareAccessInsuranceEnroll", "PrimaryAndPreventativeCare", "WomenInfantsAndChildrenWIC"]}}, {"type": "Feature", "geometry": {"type": "Point", "coordinates": [-121.991504718213, 47.20165867657902]}, "properties": {"site": "Enumclaw at Valley Cities ", "address": "1335 Cole St", "city": "Enumclaw", "zip": 98022, "region": "South", "category": "Women, Infants, and Children (WIC) Site", "services": ["CareCoordCaseManagement", "FirstStepsMaternitySupport", "HealthCareAccessInsuranceEnroll", "SexualAndReproductiveHealth", "WomenInfantsAndChildrenWIC"]}}, {"type": "Feature", "geometry": {"type": "Point", "coordinates": [-122.3178593148206, 47.30195483691529]}, "properties": {"site": "Federal Way Public Health Center", "address": "33431 13th Pl S", "city": "Federal Way", "zip": 98003, "region": "South", "category": "King County Public Health Center", "services": ["CareCoordCaseManagement", "FirstStepsMaternitySupport", "HealthCareAccessInsuranceEnroll", "WomenInfantsAndChildrenWIC"]}}, {"type": "Feature", "geometry": {"type": "Point", "coordinates": [-122.22934805470992, 47.38191063107158]}, "properties": {"site": "Kent at HealthPoint", "address": "403 E Meeker St", "city": "Kent", "zip": 98030, "region": "South", "category": "Women, Infants, and Children (WIC) Site", "services": ["CareCoordCaseManagement", "FirstStepsMaternitySupport", "HealthCareAccessInsuranceEnroll", "WomenInfantsAndChildrenWIC"]}}, {"type": "Feature", "geometry": {"type": "Point", "coordinates": [-122.16619363239934, 47.35558119724882]}, "properties": {"site": "Kent Birch Creek Public Health Center", "address": "13111 SE 274th St", "city": "Kent", "zip": 98030, "region": "South", "category": "King County Public Health Center", "services": ["CareCoordCaseManagement", "FirstStepsMaternitySupport", "HealthCareAccessInsuranceEnroll", "NurseFamilyPartnership", "SexualAndReproductiveHealth", "WomenInfantsAndChildrenWIC"]}}, {"type": "Feature", "geometry": {"type": "Point", "coordinates": [-122.20073862978455, 47.370875063907306]}, "properties": {"site": "Kent East Hill Public Health Center", "address": "25742 104th Ave SE", "city": "Kent", "zip": 98030, "region": "South", "category": "King County Public Health Center", "services": ["CareCoordCaseManagement", "ChildrenSpecialHealthCareNeeds", "FirstStepsMaternitySupport", "HealthCareAccessInsuranceEnroll", "WomenInfantsAndChildrenWIC"]}}, {"type": "Feature", "geometry": {"type": "Point", "coordinates": [-122.29951647709998, 47.718983449209695]}, "properties": {"site": "Lake City at North Seattle Family Center", "address": "2611 NE 125th St", "city": "Seattle", "zip": 98125, "region": "Seattle", "category": "Women, Infants, and Children (WIC) Site", "services": ["CareCoordCaseManagement", "FirstStepsMaternitySupport", "HealthCareAccessInsuranceEnroll", "WomenInfantsAndChildrenWIC"]}}, {"type": "Feature", "geometry": {"type": "Point", "coordinates": [-122.10778787926479, 47.250998831627165]}, "properties": {"site": "Muckleshoot Wellness Center", "address": "17500 SE 392nd St", "city": "Auburn", "zip": 98092, "region": "South", "category": "Women, Infants, and Children (WIC) Site", "services": ["CareCoordCaseManagement", "FirstStepsMaternitySupport", "HealthCareAccessInsuranceEnroll", "WomenInfantsAndChildrenWIC"]}}, {"type": "Feature", "geometry": {"type": "Point", "coordinates": [-121.78334834639402, 47.49637250700283]}, "properties": {"site": "North Bend at Snoqualmie Food Bank", "address": "122 East 3rd St", "city": "North Bend", "zip": 98045, "region": "East", "category": "Women, Infants, and Children (WIC) Site", "services": ["CareCoordCaseManagement", "FirstStepsMaternitySupport", "HealthCareAccessInsuranceEnroll", "WomenInfantsAndChildrenWIC"]}}, {"type": "Feature", "geometry": {"type": "Point", "coordinates": [-122.33477367839367, 47.70598256341077]}, "properties": {"site": "North Meridian Center for Health ", "address": "10521 Meridian Ave N", "city": "Seattle", "zip": 98133, "region": "Seattle", "category": "King County Public Health Center", "services": ["CareCoordCaseManagement", "FirstStepsMaternitySupport", "HealthCareAccessInsuranceEnroll", "WomenInfantsAndChildrenWIC"]}}, {"type": "Feature", "geometry": {"type": "Point", "coordinates": [-122.29575289191358, 47.718983574502296]}, "properties": {"site": "North Seattle Dental Clinic", "address": "12359 Lake City Way NE", "city": "Seattle", "zip": 98125, "region": "Seattle", "category": "King County Public Health Center", "services": ["Dental", "HealthCareAccessInsuranceEnroll"]}}, {"type": "Feature", "geometry": {"type": "Point", "coordinates": [-122.17862175354487, 47.717621510343626]}, "properties": {"site": "Northshore Public Health at Totem Lake", "address": "13030 121st Way NE", "city": "Kirkland", "zip": 98034, "region": "East", "category": "King County Public Health Center", "services": ["CareCoordCaseManagement", "FirstStepsMaternitySupport", "HealthCareAccessInsuranceEnroll", "WomenInfantsAndChildrenWIC"]}}, {"type": "Feature", "geometry": {"type": "Point", "coordinates": [-122.17609758235169, 47.4948276453834]}, "properties": {"site": "Renton Public Health Center", "address": "3201 NE 7th St", "city": "Renton", "zip": 98056, "region": "South", "category": "King County Public Health Center", "services": ["CareCoordCaseManagement", "ChildrenSpecialHealthCareNeeds", "Dental", "FirstStepsMaternitySupport", "HealthCareAccessInsuranceEnroll", "SexualAndReproductiveHealth", "WomenInfantsAndChildrenWIC"]}}, {"type": "Feature", "geometry": {"type": "Point", "coordinates": [-122.31390982372281, 47.55230067466926]}, "properties": {"site": "School Based Health Center - Cleveland HS", "address": "5512 15th Ave S", "city": "Seattle", "zip": 98108, "region": "Seattle", "category": "King County Public Health Center", "services": ["CareCoordCaseManagement", "HealthCareAccessInsuranceEnroll", "PrimaryAndPreventativeCare", "SexualAndReproductiveHealth"]}}, {"type": "Feature", "geometry": {"type": "Point", "coordinates": [-122.33790499971224, 47.726231886183264]}, "properties": {"site": "School Based Health Center - Ingraham HS", "address": "1819 N 135th St", "city": "Seattle", "zip": 98133, "region": "Seattle", "category": "King County Public Health Center", "services": ["CareCoordCaseManagement", "HealthCareAccessInsuranceEnroll", "PrimaryAndPreventativeCare"]}}, {"type": "Feature", "geometry": {"type": "Point", "coordinates": [-122.2653696738219, 47.52381992816082]}, "properties": {"site": "School Based Health Center - Rainier Beach HS", "address": "8815 Seward Park Ave S", "city": "Seattle", "zip": 98118, "region": "Seattle", "category": "King County Public Health Center", "services": ["CareCoordCaseManagement", "HealthCareAccessInsuranceEnroll", "PrimaryAndPreventativeCare"]}}, {"type": "Feature", "geometry": {"type": "Point", "coordinates": [-122.28244691759038, 47.43469445344599]}, "properties": {"site": "SeaTac at HealthPoint", "address": "4040 S 188th St", "city": "SeaTac", "zip": 98188, "region": "South", "category": "Women, Infants, and Children (WIC) Site", "services": ["CareCoordCaseManagement", "FirstStepsMaternitySupport", "HealthCareAccessInsuranceEnroll", "WomenInfantsAndChildrenWIC"]}}, {"type": "Feature", "geometry": {"type": "Point", "coordinates": [-122.32361739900819, 47.60535826273581]}, "properties": {"site": "Sexual Health Clinic Public Health", "address": "908 Jefferson St", "city": "Seattle", "zip": 98104, "region": "Seattle", "category": "King County Public Health Center", "services": ["CareCoordCaseManagement", "HealthCareAccessInsuranceEnroll", "SexualHealthClinic"]}}, {"type": "Feature", "geometry": {"type": "Point", "coordinates": [-122.31291172650019, 47.75259885856471]}, "properties": {"site": "Shoreline at Center for Human Services", "address": "17018 15th Ave NE", "city": "Shoreline", "zip": 98155, "region": "North", "category": "Women, Infants, and Children (WIC) Site", "services": ["CareCoordCaseManagement", "FirstStepsMaternitySupport", "HealthCareAccessInsuranceEnroll", "WomenInfantsAndChildrenWIC"]}}, {"type": "Feature", "geometry": {"type": "Point", "coordinates": [-122.23798959420755, 47.48913389977618]}, "properties": {"site": "Skyway at Cynthia A. Green Family Center", "address": "12704 76th Ave S", "city": "Seattle", "zip": 98178, "region": "Seattle", "category": "Women, Infants, and Children (WIC) Site", "services": ["CareCoordCaseManagement", "FirstStepsMaternitySupport", "HealthCareAccessInsuranceEnroll", "WomenInfantsAndChildrenWIC"]}}, {"type": "Feature", "geometry": {"type": "Point", "coordinates": [-122.32366123595253, 47.60392063924776]}, "properties": {"site": "TB Clinic - Public Health", "address": "325 9th Ave", "city": "Seattle", "zip": 98104, "region": "Seattle", "category": "King County Public Health Center", "services": ["CareCoordCaseManagement", "HealthCareAccessInsuranceEnroll", "TuberculosisControlProgram"]}}, {"type": "Feature", "geometry": {"type": "Point", "coordinates": [-122.46008445344299, 47.44396375641057]}, "properties": {"site": "Vashon Island at United Methodist", "address": "17928 Vashon Hwy SW", "city": "Vashon", "zip": 98070, "region": "South", "category": "Women, Infants, and Children (WIC) Site", "services": ["CareCoordCaseManagement", "FirstStepsMaternitySupport", "HealthCareAccessInsuranceEnroll", "WomenInfantsAndChildrenWIC"]}}, {"type": "Feature", "geometry": {"type": "Point", "coordinates": [-122.37601174922398, 47.54780183809855]}, "properties": {"site": "West Seattle at Neighborcare Highpoint", "address": "6020 35th Ave SW", "city": "Seattle", "zip": 98126, "region": "Seattle", "category": "Women, Infants, and Children (WIC) Site", "services": ["CareCoordCaseManagement", "FirstStepsMaternitySupport", "HealthCareAccessInsuranceEnroll", "WomenInfantsAndChildrenWIC"]}}, {"type": "Feature", "geometry": {"type": "Point", "coordinates": [-122.34498458957749, 47.51431729351594]}, "properties": {"site": "White Center Public Health Center", "address": "9934 8th Ave SW", "city": "Seattle", "zip": 98106, "region": "Seattle", "category": "King County Public Health Center", "services": ["CareCoordCaseManagement", "FirstStepsMaternitySupport", "HealthCareAccessInsuranceEnroll", "WomenInfantsAndChildrenWIC"]}}, {"type": "Feature", "geometry": {"type": "Point", "coordinates": [-122.32856028275997, 47.60339853810933]}, "properties": {"site": "King County Correctional Facility ", "address": "500 5th Ave", "city": "Seattle", "zip": 98124, "region": "Seattle", "category": "Courts and Criminal Justice Facilities", "services": ["BehavioralHealthSupports", "CareCoordCaseManagement", "HealthCareAccessInsuranceEnroll"]}}, {"type": "Feature", "geometry": {"type": "Point", "coordinates": [-122.23836868992176, 47.384802436830036]}, "properties": {"site": "Maleng Regional Justice Center ", "address": "401 4th Ave N", "city": "Kent", "zip": 98032, "region": "South", "category": "Courts and Criminal Justice Facilities", "services": ["BehavioralHealthSupports", "CareCoordCaseManagement", "HealthCareAccessInsuranceEnroll"]}}, {"type": "Feature", "geometry": {"type": "Point", "coordinates": [-122.32812027228103, 47.601930365365725]}, "properties": {"site": "King Community Services", "address": "400 Yesler Way", "city": "Seattle", "zip": 98104, "region": "Seattle", "category": "Courts and Criminal Justice Facilities", "services": ["BehavioralHealthSupports", "CareCoordCaseManagement", "HealthCareAccessInsuranceEnroll"]}}, {"type": "Feature", "geometry": {"type": "Point", "coordinates": [-122.24920556370185, 47.38319468225254]}, "properties": {"site": "Kent Community Engagement Center", "address": "1229 W Smith Street", "city": "Kent", "zip": 98032, "region": "South", "category": "Homeless Shelter and Housing Programs", "services": ["BehavioralHealthSupports", "CareCoordCaseManagement", "HealthCareAccessInsuranceEnroll", "MobileMedicalOrStreetMedicine", "PrimaryAndPreventativeCare"]}}, {"type": "Feature", "geometry": {"type": "Point", "coordinates": [-122.34052330587741, 47.611219202957834]}, "properties": {"site": "Josephinum Supportive Housing", "address": "1902 2nd Ave", "city": "Seattle", "zip": 98101, "region": "Seattle", "category": "Homeless Shelter and Housing Programs", "services": ["BehavioralHealthSupports", "CareCoordCaseManagement", "HealthCareAccessInsuranceEnroll"]}}, {"type": "Feature", "geometry": {"type": "Point", "coordinates": [-122.23679014414584, 47.37421781892695]}, "properties": {"site": "Sacred Heart Shelter", "address": "739 3rd Ave S", "city": "Kent", "zip": 98032, "region": "Seattle", "category": "Homeless Shelter and Housing Programs", "services": ["CareCoordCaseManagement", "HealthCareAccessInsuranceEnroll", "ShelterNursing"]}}, {"type": "Feature", "geometry": {"type": "Point", "coordinates": [-122.2933861487717, 47.57159216260558]}, "properties": {"site": "Estelle House Supportive Housing", "address": "3501 Rainier Ave S", "city": "Seattle", "zip": 98144, "region": "Seattle", "category": "Homeless Shelter and Housing Programs", "services": ["CareCoordCaseManagement", "HealthCareAccessInsuranceEnroll", "HousingHealthOutreachTeam"]}}, {"type": "Feature", "geometry": {"type": "Point", "coordinates": [-122.15405791382744, 47.71513663804536]}, "properties": {"site": "Friends of Youth Willows Youth Services Center", "address": "12735 Willows Rd NE", "city": "Kirkland", "zip": 98034, "region": "East", "category": "Homeless Shelter and Housing Programs", "services": ["BehavioralHealthSupports", "CareCoordCaseManagement", "HealthCareAccessInsuranceEnroll"]}}, {"type": "Feature", "geometry": {"type": "Point", "coordinates": [-122.19431261770495, 47.620102747042246]}, "properties": {"site": "Bellevue Library", "address": "1111 110th Ave NE", "city": "Bellevue", "zip": 98004, "region": "East", "category": "Community Based Organizations", "services": ["CareCoordCaseManagement", "HealthCareAccessInsuranceEnroll", "PeerSupportServices"]}}, {"type": "Feature", "geometry": {"type": "Point", "coordinates": [-122.33961212767264, 47.46714729022255]}, "properties": {"site": "Burien Library", "address": "400 SW 152nd St", "city": "Burien", "zip": 98166, "region": "South", "category": "Community Based Organizations", "services": ["CareCoordCaseManagement", "HealthCareAccessInsuranceEnroll", "PeerSupportServices", "ShelterNursing"]}}, {"type": "Feature", "geometry": {"type": "Point", "coordinates": [-121.98751736859005, 47.20361816514016]}, "properties": {"site": "Enumclaw Library", "address": "1700 1st St", "city": "Enumclaw", "zip": 98022, "region": "South", "category": "Community Based Organizations", "services": ["CareCoordCaseManagement", "HealthCareAccessInsuranceEnroll", "PeerSupportServices"]}}, {"type": "Feature", "geometry": {"type": "Point", "coordinates": [-122.33184790073827, 47.29459663643729]}, "properties": {"site": "Federal Way Library", "address": "34200 1st Way S", "city": "Federal Way", "zip": 98003, "region": "South", "category": "Community Based Organizations", "services": ["CareCoordCaseManagement", "HealthCareAccessInsuranceEnroll", "PeerSupportServices", "ShelterNursing"]}}, {"type": "Feature", "geometry": {"type": "Point", "coordinates": [-122.2019844349495, 47.481876004869235]}, "properties": {"site": "Renton Library", "address": "100 Mill Ave S", "city": "Renton", "zip": 98057, "region": "South", "category": "Community Based Organizations", "services": ["CareCoordCaseManagement", "HealthCareAccessInsuranceEnroll", "ShelterNursing"]}}, {"type": "Feature", "geometry": {"type": "Point", "coordinates": [-122.35155541599529, 47.723849258513525]}, "properties": {"site": "Lakefront Community House", "address": "600 N 130th St", "city": "Seattle", "zip": 98133, "region": "Seattle", "category": "Homeless Shelter and Housing Programs", "services": ["BehavioralHealthSupports", "CareCoordCaseManagement", "HealthCareAccessInsuranceEnroll"]}}, {"type": "Feature", "geometry": {"type": "Point", "coordinates": [-122.3193995715996, 47.539613410858095]}, "properties": {"site": "Georgetown Village", "address": "1020 S Myrtle St", "city": "Seattle", "zip": 98108, "region": "Seattle", "category": "Homeless Shelter and Housing Programs", "services": ["BehavioralHealthSupports", "CareCoordCaseManagement", "HealthCareAccessInsuranceEnroll", "ShelterNursing"]}}, {"type": "Feature", "geometry": {"type": "Point", "coordinates": [-122.32197244397338, 47.627000259918226]}, "properties": {"site": "Lake Union Village", "address": "800 Aloha St", "city": "Seattle", "zip": 98109, "region": "Seattle", "category": "Homeless Shelter and Housing Programs", "services": ["BehavioralHealthSupports", "CareCoordCaseManagement", "HealthCareAccessInsuranceEnroll", "ShelterNursing"]}}, {"type": "Feature", "geometry": {"type": "Point", "coordinates": [-122.28032152420376, 47.534065418136095]}, "properties": {"site": "Othello Village", "address": "7544 Martin Luther King Jr Way S", "city": "Seattle", "zip": 98118, "region": "Seattle", "category": "Homeless Shelter and Housing Programs", "services": ["BehavioralHealthSupports", "CareCoordCaseManagement", "HealthCareAccessInsuranceEnroll", "MobileMedicalOrStreetMedicine", "PrimaryAndPreventativeCare"]}}, {"type": "Feature", "geometry": {"type": "Point", "coordinates": [-122.26213200248371, 47.49111465789437]}, "properties": {"site": "Progressive Skyway Village", "address": "12429 56th Pl S", "city": "Seattle", "zip": 98178, "region": "Seattle", "category": "Homeless Shelter and Housing Programs", "services": ["BehavioralHealthSupports", "CareCoordCaseManagement", "HealthCareAccessInsuranceEnroll", "MobileMedicalOrStreetMedicine", "PrimaryAndPreventativeCare"]}}, {"type": "Feature", "geometry": {"type": "Point", "coordinates": [-122.2800828357316, 47.52137137223789]}, "properties": {"site": "Southend Village", "address": "9101 Martin Luther King Jr Way S", "city": "Seattle", "zip": 98119, "region": "Seattle", "category": "Homeless Shelter and Housing Programs", "services": ["CareCoordCaseManagement", "HealthCareAccessInsuranceEnroll", "ShelterNursing"]}}, {"type": "Feature", "geometry": {"type": "Point", "coordinates": [-122.3035115352024, 47.60766016295296]}, "properties": {"site": "TC Spirit Village", "address": "612 22nd Ave", "city": "Seattle", "zip": 98122, "region": "Seattle", "category": "Homeless Shelter and Housing Programs", "services": ["CareCoordCaseManagement", "HealthCareAccessInsuranceEnroll", "ShelterNursing"]}}, {"type": "Feature", "geometry": {"type": "Point", "coordinates": [-122.30936678183527, 47.601873745586786]}, "properties": {"site": "True Hope Village", "address": "1714 E Yesler Way", "city": "Seattle", "zip": 98122, "region": "Seattle", "category": "Homeless Shelter and Housing Programs", "services": ["CareCoordCaseManagement", "HealthCareAccessInsuranceEnroll", "ShelterNursing"]}}, {"type": "Feature", "geometry": {"type": "Point", "coordinates": [-122.33241356935007, 47.605109425939226]}, "properties": {"site": "Pacific Apartments", "address": "317 Marion St", "city": "Seattle", "zip": 98104, "region": "Seattle", "category": "Homeless Shelter and Housing Programs", "services": ["CareCoordCaseManagement", "HealthCareAccessInsuranceEnroll", "HousingHealthOutreachTeam"]}}, {"type": "Feature", "geometry": {"type": "Point", "coordinates": [-122.32742421519619, 47.605619593685574]}, "properties": {"site": "Plymouth on First Hill", "address": "710 Cherry St", "city": "Seattle", "zip": 98104, "region": "Seattle", "category": "Homeless Shelter and Housing Programs", "services": ["CareCoordCaseManagement", "HealthCareAccessInsuranceEnroll", "HousingHealthOutreachTeam"]}}, {"type": "Feature", "geometry": {"type": "Point", "coordinates": [-122.38444176642017, 47.66981450584849]}, "properties": {"site": "Ballard Branch - Seattle Public Library", "address": "5614 22nd Ave NW", "city": "Seattle", "zip": 98107, "region": "Seattle", "category": "Community Based Organizations", "services": ["BehavioralHealthSupports", "CareCoordCaseManagement", "HealthCareAccessInsuranceEnroll"]}}, {"type": "Feature", "geometry": {"type": "Point", "coordinates": [-122.33296822014474, 47.60648526208403]}, "properties": {"site": "Seattle Central Library", "address": "1000 4th Ave", "city": "Seattle", "zip": 98104, "region": "Seattle", "category": "Community Based Organizations", "services": ["BehavioralHealthSupports", "CareCoordCaseManagement", "HealthCareAccessInsuranceEnroll", "MobileMedicalOrStreetMedicine", "PrimaryAndPreventativeCare"]}}, {"type": "Feature", "geometry": {"type": "Point", "coordinates": [-122.33156140985352, 47.55360058489409]}, "properties": {"site": "Lifelong", "address": "210 S Lucile St", "city": "Seattle", "zip": 98108, "region": "Seattle", "category": "Community Based Organizations", "services": ["CareCoordCaseManagement", "HealthCareAccessInsuranceEnroll"]}}, {"type": "Feature", "geometry": {"type": "Point", "coordinates": [-122.38451122954014, 47.67063231328136]}, "properties": {"site": "St. Lukes Church", "address": "5710 22nd Ave NW ", "city": "Seattle", "zip": 98107, "region": "Seattle", "category": "Homeless Shelter and Housing Programs", "services": ["BehavioralHealthSupports", "CareCoordCaseManagement", "HealthCareAccessInsuranceEnroll"]}}, {"type": "Feature", "geometry": {"type": "Point", "coordinates": [-122.22038034214367, 47.29963240627339]}, "properties": {"site": "Arcadia Drop In and Shelter", "address": "932 Auburn Way S", "city": "Auburn", "zip": 98002, "region": "South", "category": "Homeless Shelter and Housing Programs", "services": ["BehavioralHealthSupports", "CareCoordCaseManagement", "HealthCareAccessInsuranceEnroll", "PrimaryAndPreventativeCare"]}}, {"type": "Feature", "geometry": {"type": "Point", "coordinates": [-122.29298685378055, 47.71988462089704]}, "properties": {"site": "God's Lil Acres", "address": "12521 33rd Ave NE", "city": "Seattle", "zip": 98125, "region": "Seattle", "category": "Homeless Shelter and Housing Programs", "services": ["BehavioralHealthSupports", "CareCoordCaseManagement", "HealthCareAccessInsuranceEnroll", "MobileMedicalOrStreetMedicine", "PrimaryAndPreventativeCare"]}}, {"type": "Feature", "geometry": {"type": "Point", "coordinates": [-122.33284065343311, 47.516216895656456]}, "properties": {"site": "Camp Second Chance", "address": "9701 Myers Way S", "city": "Seattle", "zip": 98108, "region": "Seattle", "category": "Encampment and Outreach Area", "services": ["BehavioralHealthSupports", "CareCoordCaseManagement", "HealthCareAccessInsuranceEnroll", "MobileMedicalOrStreetMedicine", "PrimaryAndPreventativeCare"]}}, {"type": "Feature", "geometry": {"type": "Point", "coordinates": [-122.22012327472615, 47.382181628907574]}, "properties": {"site": "Kent Hope Day Center", "address": "9009 Canyon Dr", "city": "Kent", "zip": 98030, "region": "South", "category": "Homeless Shelter and Housing Programs", "services": ["CareCoordCaseManagement", "HealthCareAccessInsuranceEnroll", "ShelterNursing"]}}, {"type": "Feature", "geometry": {"type": "Point", "coordinates": [-122.37399956737228, 47.66390617008221]}, "properties": {"site": "Ballard Food Bank", "address": "1400 Leary Way NW", "city": "Seattle", "zip": 98107, "region": "Seattle", "category": "Homeless Shelter and Housing Programs", "services": ["BehavioralHealthSupports", "CareCoordCaseManagement", "HealthCareAccessInsuranceEnroll", "MobileMedicalOrStreetMedicine", "PrimaryAndPreventativeCare"]}}, {"type": "Feature", "geometry": {"type": "Point", "coordinates": [-122.34136571279416, 47.47095329220381]}, "properties": {"site": "Burien Community Center", "address": "14700 6th Ave SW", "city": "Burien", "zip": 98166, "region": "South", "category": "Community Based Organizations", "services": ["BehavioralHealthSupports", "CareCoordCaseManagement", "HealthCareAccessInsuranceEnroll"]}}, {"type": "Feature", "geometry": {"type": "Point", "coordinates": [-122.29329728674033, 47.59749030772896]}, "properties": {"site": "Central Area Senior Center", "address": "500 30th Ave S", "city": "Seattle", "zip": 98144, "region": "Seattle", "category": "Community Based Organizations", "services": ["CareCoordCaseManagement", "HealthCareAccessInsuranceEnroll", "MobileMedicalOrStreetMedicine"]}}, {"type": "Feature", "geometry": {"type": "Point", "coordinates": [-122.32913803483083, 47.604165259794094]}, "properties": {"site": "Court Resource Center - Seattle", "address": "600 5th Ave", "city": "Seattle", "zip": 98104, "region": "Seattle", "category": "Courts and Criminal Justice Facilities", "services": ["CareCoordCaseManagement", "HealthCareAccessInsuranceEnroll"]}}, {"type": "Feature", "geometry": {"type": "Point", "coordinates": [-122.30585609262563, 47.406989999938546]}, "properties": {"site": "Des Moines Senior Center", "address": "2045 S 216th St", "city": "Des Moines", "zip": 98198, "region": "South", "category": "Community Based Organizations", "services": ["CareCoordCaseManagement", "HealthCareAccessInsuranceEnroll", "MobileMedicalOrStreetMedicine"]}}, {"type": "Feature", "geometry": {"type": "Point", "coordinates": [-122.31719548268013, 47.30138548892124]}, "properties": {"site": "Federal Way Day Center", "address": "33505 13th Pl S", "city": "Federal Way", "zip": 98003, "region": "South", "category": "Homeless Shelter and Housing Programs", "services": ["BehavioralHealthSupports", "CareCoordCaseManagement", "HealthCareAccessInsuranceEnroll", "MobileMedicalOrStreetMedicine", "PrimaryAndPreventativeCare"]}}, {"type": "Feature", "geometry": {"type": "Point", "coordinates": [-122.25036848100855, 47.38182782981921]}, "properties": {"site": "Kent Community Services Office ", "address": "1313 W Meeker St", "city": "Kent", "zip": 98032, "region": "South", "category": "Community Based Organizations", "services": ["CareCoordCaseManagement", "FirstStepsMaternitySupport", "HealthCareAccessInsuranceEnroll", "WomenInfantsAndChildrenWIC"]}}, {"type": "Feature", "geometry": {"type": "Point", "coordinates": [-121.78847419993204, 47.49273656882519]}, "properties": {"site": "Mt. Si Senior Center", "address": "411 Main Ave S", "city": "North Bend", "zip": 98045, "region": "East", "category": "Community Based Organizations", "services": ["CareCoordCaseManagement", "HealthCareAccessInsuranceEnroll", "MobileMedicalOrStreetMedicine"]}}, {"type": "Feature", "geometry": {"type": "Point", "coordinates": [-122.23162798376543, 47.38082014818062]}, "properties": {"site": "Peer Kent Outreach", "address": "216 W Gowe St #300", "city": "Kent", "zip": 98032, "region": "South", "category": "Encampment and Outreach Area", "services": ["CareCoordCaseManagement", "HealthCareAccessInsuranceEnroll", "ShelterNursing"]}}, {"type": "Feature", "geometry": {"type": "Point", "coordinates": [-122.34081456604866, 47.60832753470318]}, "properties": {"site": "Pike Market Senior Center", "address": "85 Pike St", "city": "Seattle", "zip": 98101, "region": "Seattle", "category": "Community Based Organizations", "services": ["CareCoordCaseManagement", "HealthCareAccessInsuranceEnroll", "MobileMedicalOrStreetMedicine"]}}, {"type": "Feature", "geometry": {"type": "Point", "coordinates": [-122.34267094192266, 47.61060164907403]}, "properties": {"site": "Pike Market Youth Clinic", "address": "1930 Post Alley", "city": "Seattle", "zip": 98101, "region": "Seattle", "category": "Clinics and Health Care Settings", "services": ["BehavioralHealthSupports", "CareCoordCaseManagement", "HealthCareAccessInsuranceEnroll", "PrimaryAndPreventativeCare"]}}, {"type": "Feature", "geometry": {"type": "Point", "coordinates": [-122.3345668580325, 47.618306048608865]}, "properties": {"site": "Recovery Cafe", "address": "2022 Boren Ave", "city": "Seattle", "zip": 98121, "region": "Seattle", "category": "Community Based Organizations", "services": ["BehavioralHealthSupports", "CareCoordCaseManagement", "HealthCareAccessInsuranceEnroll", "ShelterNursing"]}}, {"type": "Feature", "geometry": {"type": "Point", "coordinates": [-122.222465744721, 47.47425137709249]}, "properties": {"site": "Renton Community Services Office ", "address": "500 SW 7th St", "city": "Renton", "zip": 98057, "region": "South", "category": "Community Based Organizations", "services": ["CareCoordCaseManagement", "HealthCareAccessInsuranceEnroll"]}}, {"type": "Feature", "geometry": {"type": "Point", "coordinates": [-122.30754800916503, 47.66243173176546]}, "properties": {"site": "ROOTS Young Adult Shelter", "address": "4541 19th Ave NE", "city": "Seattle", "zip": 98105, "region": "Seattle", "category": "Homeless Shelter and Housing Programs", "services": ["CareCoordCaseManagement", "HealthCareAccessInsuranceEnroll", "PrimaryAndPreventativeCare"]}}, {"type": "Feature", "geometry": {"type": "Point", "coordinates": [-122.2010612425772, 47.63829084343526]}, "properties": {"site": "Sophia Way Sophia's Place", "address": "3032 Bellevue Way NE", "city": "Bellevue", "zip": 98004, "region": "East", "category": "Homeless Shelter and Housing Programs", "services": ["CareCoordCaseManagement", "HealthCareAccessInsuranceEnroll", "ShelterNursing"]}}, {"type": "Feature", "geometry": {"type": "Point", "coordinates": [-122.31229170892226, 47.414900629379076]}, "properties": {"site": "South Correctional Jail (SCORE)", "address": "20817 17th Ave S", "city": "Des Moines", "zip": 98198, "region": "South", "category": "Courts and Criminal Justice Facilities", "services": ["BehavioralHealthSupports", "CareCoordCaseManagement", "HealthCareAccessInsuranceEnroll"]}}, {"type": "Feature", "geometry": {"type": "Point", "coordinates": [-122.3205359906808, 47.529603077822074]}, "properties": {"site": "South Park Senior Center", "address": "8201 10th Ave S", "city": "Seattle", "zip": 98108, "region": "Seattle", "category": "Community Based Organizations", "services": ["CareCoordCaseManagement", "HealthCareAccessInsuranceEnroll", "MobileMedicalOrStreetMedicine"]}}, {"type": "Feature", "geometry": {"type": "Point", "coordinates": [-122.27306350912026, 47.54226303461662]}, "properties": {"site": "Southeast Seattle Senior Center", "address": "4655 S Holly St", "city": "Seattle", "zip": 98118, "region": "Seattle", "category": "Community Based Organizations", "services": ["CareCoordCaseManagement", "HealthCareAccessInsuranceEnroll", "MobileMedicalOrStreetMedicine"]}}, {"type": "Feature", "geometry": {"type": "Point", "coordinates": [-122.21911880354786, 47.311519053376244]}, "properties": {"site": "Spirit Fest", "address": "410 H St NE", "city": "Auburn", "zip": 98002, "region": "South", "category": "Homeless Shelter and Housing Programs", "services": ["BehavioralHealthSupports", "CareCoordCaseManagement", "HealthCareAccessInsuranceEnroll", "MobileMedicalOrStreetMedicine", "PrimaryAndPreventativeCare"]}}, {"type": "Feature", "geometry": {"type": "Point", "coordinates": [-122.34158934558731, 47.61317584575458]}, "properties": {"site": "Third Ave Center", "address": "2028 3rd Ave", "city": "Seattle", "zip": 98121, "region": "Seattle", "category": "Clinics and Health Care Settings", "services": ["CareCoordCaseManagement", "HealthCareAccessInsuranceEnroll", "PalliativeCare", "PrimaryAndPreventativeCare"]}}, {"type": "Feature", "geometry": {"type": "Point", "coordinates": [-122.23372856961745, 47.38069775492148]}, "properties": {"site": "Titusville Station Apartments", "address": "205 1st Ave S", "city": "Kent", "zip": 98032, "region": "South", "category": "Homeless Shelter and Housing Programs", "services": ["CareCoordCaseManagement", "HealthCareAccessInsuranceEnroll", "ShelterNursing"]}}, {"type": "Feature", "geometry": {"type": "Point", "coordinates": [-122.34079754556171, 47.61988159261497]}, "properties": {"site": "Unity Church", "address": "200 8th Ave N", "city": "Seattle", "zip": 98109, "region": "Seattle", "category": "Homeless Shelter and Housing Programs", "services": ["BehavioralHealthSupports", "CareCoordCaseManagement", "HealthCareAccessInsuranceEnroll"]}}, {"type": "Feature", "geometry": {"type": "Point", "coordinates": [-122.33132926390097, 47.60237980240197]}, "properties": {"site": "Downtown Emergency Service Center ", "address": "515 3rd Ave", "city": "Seattle", "zip": 98104, "region": "Seattle", "category": "Homeless Shelter and Housing Programs", "services": ["BehavioralHealthSupports", "CareCoordCaseManagement", "HealthCareAccessInsuranceEnroll", "MobileMedicalOrStreetMedicine", "PrimaryAndPreventativeCare"]}}, {"type": "Feature", "geometry": {"type": "Point", "coordinates": [-122.23452517907178, 47.37899079487439]}, "properties": {"site": "Kent Lutheran Church", "address": "336 2nd Ave S", "city": "Kent", "zip": 98032, "region": "South", "category": "Homeless Shelter and Housing Programs", "services": ["BehavioralHealthSupports", "CareCoordCaseManagement", "Dental", "HealthCareAccessInsuranceEnroll", "MobileMedicalOrStreetMedicine", "PrimaryAndPreventativeCare"]}}, {"type": "Feature", "geometry": {"type": "Point", "coordinates": [-122.22072065731325, 47.332592379571565]}, "properties": {"site": "Auburn Community Resource Center", "address": "2814 Auburn Way N", "city": "Auburn", "zip": 98002, "region": "South", "category": "Community Based Organizations", "services": ["BehavioralHealthSupports", "CareCoordCaseManagement", "HealthCareAccessInsuranceEnroll", "MobileMedicalOrStreetMedicine", "PrimaryAndPreventativeCare"]}}, {"type": "Feature", "geometry": {"type": "Point", "coordinates": [-122.30178826473728, 47.31443943718771]}, "properties": {"site": "Calvary Lutheran", "address": "2415 S 320th St", "city": "Federal Way", "zip": 98003, "region": "South", "category": "Homeless Shelter and Housing Programs", "services": ["BehavioralHealthSupports", "CareCoordCaseManagement", "Dental", "HealthCareAccessInsuranceEnroll", "MobileMedicalOrStreetMedicine", "PrimaryAndPreventativeCare"]}}, {"type": "Feature", "geometry": {"type": "Point", "coordinates": [-122.32943514990507, 47.585561335672345]}, "properties": {"site": "Northwest Harvest's SODO Community Market Food Bank", "address": "1915 4th Ave S", "city": "Seattle", "zip": 98134, "region": "Seattle", "category": "Homeless Shelter and Housing Programs", "services": ["BehavioralHealthSupports", "CareCoordCaseManagement", "HealthCareAccessInsuranceEnroll", "MobileMedicalOrStreetMedicine", "PrimaryAndPreventativeCare"]}}, {"type": "Feature", "geometry": {"type": "Point", "coordinates": [-122.27055509560152, 47.52252441224448]}, "properties": {"site": "Rainier Valley Food Bank", "address": "9021 Rainier Ave S", "city": "Seattle", "zip": 98118, "region": "Seattle", "category": "Homeless Shelter and Housing Programs", "services": ["BehavioralHealthSupports", "CareCoordCaseManagement", "HealthCareAccessInsuranceEnroll", "MobileMedicalOrStreetMedicine", "PrimaryAndPreventativeCare"]}}, {"type": "Feature", "geometry": {"type": "Point", "coordinates": [-122.2207251896367, 47.33234377413418]}, "properties": {"site": "Ray of Hope Shelter", "address": "2806 Auburn Way N", "city": "Auburn", "zip": 98002, "region": "South", "category": "Homeless Shelter and Housing Programs", "services": ["CareCoordCaseManagement", "HealthCareAccessInsuranceEnroll", "MobileMedicalOrStreetMedicine", "PrimaryAndPreventativeCare", "ShelterNursing"]}}, {"type": "Feature", "geometry": {"type": "Point", "coordinates": [-122.33518164836946, 47.60016616090013]}, "properties": {"site": "Real Change", "address": "96 S Main Street", "city": "Seattle", "zip": 98104, "region": "Seattle", "category": "Community Based Organizations", "services": ["BehavioralHealthSupports", "CareCoordCaseManagement", "HealthCareAccessInsuranceEnroll", "MobileMedicalOrStreetMedicine", "PrimaryAndPreventativeCare"]}}, {"type": "Feature", "geometry": {"type": "Point", "coordinates": [-122.2924339406916, 47.47852220635508]}, "properties": {"site": "Riverton United Methodist Church", "address": "3118 S 140th St", "city": "Tukwila", "zip": 98168, "region": "South", "category": "Encampment and Outreach Area", "services": ["BehavioralHealthSupports", "CareCoordCaseManagement", "HealthCareAccessInsuranceEnroll", "MobileMedicalOrStreetMedicine", "PrimaryAndPreventativeCare"]}}, {"type": "Feature", "geometry": {"type": "Point", "coordinates": [-122.20719890533185, 47.48391548685766]}, "properties": {"site": "Salvation Army Renton", "address": "720 S Tobin St", "city": "Renton", "zip": 98057, "region": "South", "category": "Homeless Shelter and Housing Programs", "services": ["BehavioralHealthSupports", "CareCoordCaseManagement", "HealthCareAccessInsuranceEnroll", "MobileMedicalOrStreetMedicine", "PrimaryAndPreventativeCare"]}}, {"type": "Feature", "geometry": {"type": "Point", "coordinates": [-122.32629859185867, 47.59297852648949]}, "properties": {"site": "Salvation Army SODO", "address": "1045 6th Ave S", "city": "Seattle", "zip": 98134, "region": "Seattle", "category": "Homeless Shelter and Housing Programs", "services": ["BehavioralHealthSupports", "CareCoordCaseManagement", "HealthCareAccessInsuranceEnroll", "MobileMedicalOrStreetMedicine", "PrimaryAndPreventativeCare"]}}, {"type": "Feature", "geometry": {"type": "Point", "coordinates": [-122.32912906081802, 47.54848445884851]}, "properties": {"site": "St. Vincent de Paul Food Bank", "address": "5972 4th Ave S", "city": "Seattle", "zip": 98108, "region": "Seattle", "category": "Homeless Shelter and Housing Programs", "services": ["BehavioralHealthSupports", "CareCoordCaseManagement", "HealthCareAccessInsuranceEnroll", "MobileMedicalOrStreetMedicine", "PrimaryAndPreventativeCare"]}}, {"type": "Feature", "geometry": {"type": "Point", "coordinates": [-122.323600140124, 47.46292677895811]}, "properties": {"site": "Transform Burien", "address": "15623 Des Moines Memorial Dr", "city": "Burien", "zip": 98148, "region": "South", "category": "Homeless Shelter and Housing Programs", "services": ["BehavioralHealthSupports", "CareCoordCaseManagement", "HealthCareAccessInsuranceEnroll", "MobileMedicalOrStreetMedicine", "PrimaryAndPreventativeCare"]}}, {"type": "Feature", "geometry": {"type": "Point", "coordinates": [-122.35013858347945, 47.61411960634784]}, "properties": {"site": "Uplift NW", "address": "2515 Western Ave", "city": "Seattle", "zip": 98121, "region": "Seattle", "category": "Community Based Organizations", "services": ["BehavioralHealthSupports", "CareCoordCaseManagement", "HealthCareAccessInsuranceEnroll", "MobileMedicalOrStreetMedicine", "PrimaryAndPreventativeCare"]}}, {"type": "Feature", "geometry": {"type": "Point", "coordinates": [-122.33039122040101, 47.61823138110587]}, "properties": {"site": "Orion Multi-Service Center", "address": "1828 Yale Ave N", "city": "Seattle", "zip": 98101, "region": "Seattle", "category": "Homeless Shelter and Housing Programs", "services": ["BehavioralHealthSupports", "CareCoordCaseManagement", "HealthCareAccessInsuranceEnroll"]}}, {"type": "Feature", "geometry": {"type": "Point", "coordinates": [-122.26435856219152, 47.5201973476547]}, "properties": {"site": "South Seattle Youth Shelter", "address": "9416 Rainier Ave S", "city": "Seattle", "zip": 98118, "region": "Seattle", "category": "Homeless Shelter and Housing Programs", "services": ["BehavioralHealthSupports", "CareCoordCaseManagement", "HealthCareAccessInsuranceEnroll", "PrimaryAndPreventativeCare"]}}, {"type": "Feature", "geometry": {"type": "Point", "coordinates": [-122.31166385916666, 47.66185007303413]}, "properties": {"site": "U District Youth Center", "address": "4516 15th Ave NE", "city": "Seattle", "zip": 98105, "region": "Seattle", "category": "Homeless Shelter and Housing Programs", "services": ["BehavioralHealthSupports", "CareCoordCaseManagement", "HealthCareAccessInsuranceEnroll"]}}, {"type": "Feature", "geometry": {"type": "Point", "coordinates": [-122.33774049769652, 47.66108508555048]}, "properties": {"site": "45th Street Youth Clinic", "address": "1629 N 45th St", "city": "Seattle", "zip": 98103, "region": "Seattle", "category": "Clinics and Health Care Settings", "services": ["BehavioralHealthSupports", "CareCoordCaseManagement", "HealthCareAccessInsuranceEnroll", "PrimaryAndPreventativeCare"]}}, {"type": "Feature", "geometry": {"type": "Point", "coordinates": [-122.38124936545634, 47.66922815305826]}, "properties": {"site": "Ballard Homeless Clinic", "address": "1753 NW 56th St", "city": "Seattle", "zip": 98107, "region": "Seattle", "category": "Clinics and Health Care Settings", "services": ["BehavioralHealthSupports", "CareCoordCaseManagement", "HealthCareAccessInsuranceEnroll", "PrimaryAndPreventativeCare"]}}, {"type": "Feature", "geometry": {"type": "Point", "coordinates": [-122.32545608747579, 47.60474330542568]}, "properties": {"site": "Edward Thomas Medical Respite", "address": "800 Jefferson St", "city": "Seattle", "zip": 98104, "region": "Seattle", "category": "Clinics and Health Care Settings", "services": ["CareCoordCaseManagement", "HealthCareAccessInsuranceEnroll", "MedicalRespite"]}}, {"type": "Feature", "geometry": {"type": "Point", "coordinates": [-122.34358599861834, 47.613600105523055]}, "properties": {"site": "Markham Building - REACH Drop-in", "address": "2133 3rd Ave", "city": "Seattle", "zip": 98121, "region": "Seattle", "category": "Homeless Shelter and Housing Programs", "services": ["BehavioralHealthSupports", "CareCoordCaseManagement", "HealthCareAccessInsuranceEnroll"]}}, {"type": "Feature", "geometry": {"type": "Point", "coordinates": [-122.32989011073099, 47.600581260378384]}, "properties": {"site": "Pioneer Square Clinic", "address": "206 3rd Ave S", "city": "Seattle", "zip": 98104, "region": "Seattle", "category": "Clinics and Health Care Settings", "services": ["BehavioralHealthSupports", "CareCoordCaseManagement", "HealthCareAccessInsuranceEnroll", "PalliativeCare", "PrimaryAndPreventativeCare"]}}, {"type": "Feature", "geometry": {"type": "Point", "coordinates": [-122.34473134610725, 47.622201306174894]}, "properties": {"site": "Downtown Seattle - Seattle Center Area", "address": "Street Outreach Area", "city": "Seattle", "zip": null, "region": "Seattle", "category": "Encampment and Outreach Area", "services": ["BehavioralHealthSupports", "MobileMedicalOrStreetMedicine"]}}, {"type": "Feature", "geometry": {"type": "Point", "coordinates": [-122.19595651553799, 47.47842706182088]}, "properties": {"site": "Renton Emphasis Area", "address": "Cedar River Dog Park", "city": "Renton", "zip": 98057, "region": "Renton", "category": "Encampment and Outreach Area", "services": ["BehavioralHealthSupports", "MobileMedicalOrStreetMedicine"]}}]}